timestamp,DesRoll,Roll,DesPitch,Pitch,DesYaw,Yaw,ErrRP,ErrYaw,MagX,MagY,MagZ,abGyrX,abGyrY,abGyrZ,abAccX,abAccY,abAccZ,labels
329013342.0,0.62,0.335,3.66,3.5,145.85,144.925,0.0,0.0,-127.0,-177.0,-177.0,0.00307693,0.00305133,-0.01723552,0.02856902,-0.01525691,-9.817901,0
183363292.0,-1.93,1.46,-29.65,-31.36,144.41,143.25,0.0,0.0,-393.0,-188.0,-188.0,1.030707,-1.59373,0.3477639,-1.458043,-0.08329637,-9.728107,0
150463957.0,-0.95,-0.35,-29.98,-30.38,331.95,331.67,0.0,0.0,-104.0,140.0,140.0,-1.332842,-2.173873,-0.05433274,-4.267291,0.09216804,-8.628875,1
155213723.0,-0.455,1.385,-29.99,-29.92,333.64,333.45,0.0,0.0,-89.0,137.0,137.0,-2.655063,-0.145419,0.04148732,-4.768281,-0.06965916,-8.38759,1
341113500.0,0.17,0.95,-13.79,-13.28,144.925,143.38,0.0,0.0,-256.0,-187.0,-187.0,-1.089587,2.688925,0.1859994,-2.617765,-0.3964609,-10.07638,0
417363821.0,-0.09,-1.23,-0.78,-0.25,205.46,204.5,0.0,0.0,-245.0,48.0,48.0,2.02446,1.178002,0.0365206,0.01278567,0.05195518,-9.827456,0
274613444.0,-21.66,-22.2,-6.66,-6.475,90.16,88.73,0.175,0.175,2.0,10.5,10.5,-1.040478,2.275251,0.04475113,-1.173388,-0.03426322,-9.814411,2
287513282.0,-15.71,-14.165,23.835,26.245,88.055,91.775,0.32,0.32,265.0,-127.0,-127.0,-1.956619,-1.261677,-0.00984607,-0.8240178,-0.00462425,-9.868702,2
338563687.0,0.5,-0.68,2.99,4.07,143.55,142.92,0.0,0.0,-131.0,-180.0,-180.0,-1.616127,-1.219052,-0.3714733,-0.4316539,0.6848361,-8.683213,0
287213402.0,-6.075,-6.335,16.905,16.255,90.345,92.29,0.345,0.345,155.5,-205.5,-205.5,2.328764,-0.3461892,0.00385718,-1.037122,0.04878204,-9.973158,2
345563386.0,0.52,2.11,2.3,2.51,145.81,145.31,0.0,0.0,-132.0,-177.0,-177.0,-2.769024,-1.230254,0.06300245,-4.525345,-0.04357757,-8.304634,0
49463540.0,0.0,0.11,0.0,0.09,1.42,1.38,0.0,0.0,232.0,52.0,52.0,-0.2945871,-2.551147,0.07532817,0.01468528,0.07768144,-10.15971,0
289413355.0,-21.405,-21.915,-19.085,-17.925,95.075,96.135,0.32,0.32,-118.5,-15.5,-15.5,-1.876493,-2.024075,0.04678461,-0.04241881,-0.04927402,-9.746245,2
274463504.0,-29.1,-30.09,-1.59,-2.42,89.36,86.58,0.19,0.19,27.0,57.0,57.0,-0.6628928,2.503791,0.04188149,-1.272833,0.00056589,-9.801655,2
314764044.0,0.47,1.84,3.68,4.98,145.8,145.31,0.17,0.17,-122.0,-175.0,-175.0,0.00334257,0.00325512,-0.01060493,-0.01659696,0.01151686,-9.816055,0
431763892.0,-0.27,0.94,0.04,-1.21,200.75,201.15,0.0,0.0,-234.0,31.0,31.0,0.00129447,0.00121916,0.00129693,-0.00022973,-0.00161456,-9.817987,4
69863710.0,0.12,-1.08,0.01,1.37,3.8,3.35,0.0,0.0,233.0,46.0,46.0,2.387529,0.04635566,0.04556087,-0.1645115,0.00362049,-9.823825,0
334013841.0,0.48,0.375,3.535,3.33,151.425,151.195,0.0,0.0,-145.0,-159.5,-159.5,0.00298185,0.00293947,-0.01737149,-0.0146247,0.02591453,-9.816548,0
64263451.0,0.24,-1.32,0.15,-0.25,3.8,3.29,0.0,0.0,230.0,45.0,45.0,1.987908,-1.28258,0.04970368,0.0197251,0.0170814,-9.848406,0
256863880.0,-28.34,-31.69,1.3,1.98,89.25,90.87,0.34,0.34,77.0,42.0,42.0,-2.73678,1.177739,-0.4680013,1.000002,1.000001,1.000002,2
167713721.0,-8.375,-8.585,-6.38,-11.055,338.745,334.45,0.02,0.02,19.5,203.5,203.5,-1.802771,1.91163,0.04170714,-4.861745,-0.1261091,-8.570703,1
376113661.0,-2.61,0.21,9.65,-0.15,341.86,315.265,0.01,0.01,128.5,200.0,200.0,-2.326752,-0.1427875,0.04202341,-0.01798042,-0.01710611,-9.869952,3
277713870.0,-29.88,-29.185,-2.2,-5.52,90.215,85.965,0.36,0.36,12.5,59.0,59.0,1.804243,-1.877815,-0.03263842,-0.7182806,-0.0160271,-10.14293,2
185363325.0,-1.59,1.47,-29.71,-31.47,144.26,143.48,0.0,0.0,-394.0,-189.0,-189.0,-0.1634605,-2.461356,0.1181285,-0.2601182,-0.03429233,-9.85087,0
217263893.0,-0.22,1.22,1.77,1.64,34.07,33.1,0.0,0.0,242.0,-77.0,-77.0,1.713613,1.654824,-0.1408036,1.000002,1.000001,1.000002,0
196014063.0,-1.135,0.53,-29.605,-29.58,138.93,138.25,0.0,0.0,-377.0,-202.0,-202.0,-2.336744,0.3071732,0.03893178,-1.947751,-0.09328806,-9.515157,0
366063516.0,0.81,0.05,9.96,-0.1,349.73,322.85,0.03,0.03,154.0,181.0,181.0,-2.180131,-1.011212,0.03502933,-0.6339909,-0.05124737,-9.838211,3
245863282.0,-28.76,-28.25,-2.65,-3.08,91.24,90.35,0.48,0.48,13.0,54.0,54.0,-2.645171,-0.7066255,-0.01121456,1.000002,1.000001,1.000002,2
112463330.0,-0.68,-1.62,-5.82,-4.67,326.33,327.0,0.04,0.04,127.0,174.0,174.0,2.540678,1.231264,0.08472815,-5.193128,0.1308085,-8.656785,1
225463945.0,0.39,1.45,4.66,3.15,90.02,92.8,0.0,0.0,87.0,-238.0,-238.0,1.783229,4.391173,-0.5816729,1.000002,1.000001,1.000002,0
351213625.0,0.12,28.52,-11.62,20.505,268.815,248.515,0.015,0.015,218.0,-173.0,-173.0,1.501428,-1.94571,0.05953534,-0.2739455,0.02549327,-9.993793,3
183163372.0,-1.93,1.54,-29.56,-31.28,144.44,143.28,0.0,0.0,-394.0,-188.0,-188.0,-2.296294,1.101901,0.07919363,-1.425177,-0.1845322,-9.770142,0
199413536.0,-1.665,0.42,-29.67,-29.825,135.11,134.83,0.0,0.0,-367.5,-207.0,-207.0,-1.538203,-1.994819,0.01814136,1.000002,1.000001,1.000002,0
365863596.0,0.84,0.04,9.96,-0.09,349.82,322.94,0.03,0.03,154.0,181.0,181.0,1.446577,1.978374,0.00562635,-0.7788494,-0.02515902,-9.913458,3
141964025.0,-1.8,3.13,-29.95,-31.1,329.75,329.15,0.01,0.01,-148.0,145.0,145.0,0.5736116,-2.605208,0.05264414,-4.664709,-0.3203037,-8.559608,1
111663650.0,0.32,-1.1,2.49,3.31,327.9,327.51,0.09,0.09,186.0,172.0,172.0,-2.677518,-0.6176391,0.06656447,-4.694875,0.07303375,-8.225559,1
274263584.0,-29.99,-30.87,-0.03,-1.24,88.96,86.24,0.23,0.23,32.0,61.0,61.0,-0.5316917,2.903234,0.04827251,-1.369426,-0.01791397,-9.714837,2
122613435.0,-0.495,0.3,-23.02,-21.98,331.32,332.15,0.125,0.125,-15.0,152.5,152.5,-2.12386,1.982095,0.06647074,-5.72579,0.02027015,-7.873945,1
256163327.0,25.68,27.98,10.79,10.84,91.94,91.01,0.36,0.36,142.0,-445.0,-445.0,-2.259134,-0.7937378,-0.6545576,1.000002,1.000001,1.000002,2
411913502.0,0.66,0.665,-8.835,-8.97,196.575,196.835,0.0,0.0,-320.5,11.0,11.0,-0.6469579,2.281892,0.04043549,0.00495837,0.01472061,-9.833812,0
22063671.0,0.0,0.04,0.0,0.02,3.28,3.28,0.0,0.0,232.0,52.0,52.0,0.00028856,0.00036461,0.00031923,-0.00052353,-0.00023658,-9.817421,0
214864020.0,0.94,2.23,4.01,4.81,35.46,35.4,0.0,0.0,258.0,-97.0,-97.0,-1.420931,-1.946946,-0.2864418,1.000002,1.000001,1.000002,0
219613786.0,0.115,0.17,-0.125,-0.235,34.07,33.41,0.0,0.0,222.0,-82.5,-82.5,-2.686529,-0.8831102,-0.2691387,1.000002,1.000001,1.000002,0
307713532.0,-1.29,-1.125,-7.415,-7.525,143.585,143.13,0.92,0.92,-240.5,-168.5,-168.5,0.00347059,0.00337095,-0.00309856,0.0167025,-0.00741737,-9.818598,0
67663757.0,0.17,-1.44,0.23,0.83,3.8,3.29,0.0,0.0,232.0,46.0,46.0,-1.1004,-1.522364,0.5881379,-1.536885,-0.112823,-9.707083,0
214764060.0,0.97,-0.56,3.91,3.19,35.58,36.63,0.0,0.0,247.0,-103.0,-103.0,-2.018246,1.289626,-0.2705069,1.000002,1.000001,1.000002,0
208163368.0,-8.84,-8.82,-15.55,-17.45,109.84,108.29,0.0,0.0,-170.0,-162.0,-162.0,-0.3425451,2.50245,-0.1678635,1.000002,1.000001,1.000002,0
352763838.0,1.57,14.73,-7.24,0.63,235.13,204.23,0.07,0.07,99.0,60.0,60.0,-2.273382,1.303728,0.00837114,-1.454479,-0.02560648,-9.697515,3
181514032.0,-1.48,0.665,-29.62,-29.295,145.92,145.25,0.0,0.0,-397.0,-180.5,-180.5,0.929959,-2.147217,0.05839555,-0.6091167,0.01177855,-9.964842,0
275363977.0,28.05,32.01,2.06,1.36,97.28,97.91,0.19,0.19,17.0,-466.0,-466.0,0.72261,2.239956,0.04212768,-0.6971362,-0.03964933,-9.901627,2
284563629.0,29.77,30.63,3.15,-0.16,90.83,97.57,0.55,0.55,4.0,-458.0,-458.0,-1.465835,-1.901732,0.02651185,-0.2597921,-0.02659783,-9.808116,2
334713561.0,0.485,0.37,3.55,3.45,151.45,150.975,0.0,0.0,-143.5,-160.0,-160.0,0.00296187,0.00295904,-0.01734912,0.00286183,0.00635892,-9.818003,0
315963564.0,0.76,1.77,-2.33,0.03,146.96,145.41,0.06,0.06,-161.0,-179.0,-179.0,0.00326022,0.00325596,-0.01287326,0.00247711,-0.00248959,-9.81669,0
144563818.0,-1.27,3.06,-29.97,-30.49,329.61,329.0,0.0,0.0,-132.0,147.0,147.0,2.674778,0.4374199,0.07509895,-4.899509,-0.3109132,-8.7451,1
28163730.0,0.0,0.05,0.0,0.03,2.59,2.59,0.0,0.0,232.0,52.0,52.0,0.00065304,0.00068492,0.00064437,-0.00083601,-0.00117666,-9.817812,0
280113743.0,18.125,17.635,23.285,23.715,93.485,91.435,0.47,0.47,241.0,-376.0,-376.0,2.253155,-0.5997314,0.06250033,-0.4062227,-0.0242992,-9.935066,2
285063429.0,29.97,28.92,1.16,-2.15,90.3,93.95,0.47,0.47,9.0,-463.0,-463.0,1.765323,1.552873,0.0367384,-0.1464491,-0.01096856,-9.746656,2
118763309.0,-0.66,-0.76,-12.35,-14.39,332.84,334.54,0.14,0.14,51.0,154.0,154.0,-1.194736,2.986481,0.07085647,-5.928853,0.4034721,-7.611023,1
269563798.0,-26.0,-24.25,11.33,13.71,87.15,91.87,0.68,0.68,200.0,-24.0,-24.0,-1.326206,2.058292,0.0770153,-0.9316509,0.0344749,-10.17058,2
68913673.5,0.01,0.055,0.01,0.115,3.8,3.23,0.0,0.0,234.0,45.0,45.0,0.7745427,-2.173934,-0.04220141,-0.5830366,0.01543959,-9.873789,0
99813392.0,-0.27,-0.145,0.935,0.995,327.805,326.71,0.0,0.0,169.5,172.0,172.0,0.1022326,-2.488068,-0.01462,-0.8307185,0.01007798,-10.01191,0
121513875.0,0.92,0.92,0.165,0.96,333.345,332.485,0.06,0.06,194.0,151.0,151.0,1.32119,2.623676,0.0457346,-6.087193,0.1771537,-8.03991,1
226163665.0,0.34,-0.28,4.02,5.53,90.02,89.95,0.0,0.0,90.0,-229.0,-229.0,-1.891585,-2.061,0.1979173,1.000002,1.000001,1.000002,0
244613782.0,29.8,29.255,-2.885,-3.63,89.825,91.96,0.455,0.455,-3.5,-462.0,-462.0,-2.856121,-1.78614,0.3224767,1.000002,1.000001,1.000002,2
393563345.0,-9.99,0.16,-0.35,-0.14,269.74,296.54,0.0,0.0,57.0,231.0,231.0,1.443931,-1.925794,0.05459173,-1.742355,-4.021739,-8.740413,3
147813351.0,-1.335,0.405,-29.97,-30.26,332.05,332.455,0.0,0.0,-109.5,146.0,146.0,-0.703325,-2.386386,0.9726328,-1.652405,-0.4497493,-9.908346,1
190163904.0,-1.49,1.29,-29.58,-31.54,142.07,141.38,0.0,0.0,-387.0,-196.0,-196.0,-0.9690362,-2.014256,0.03632667,0.0009522,-0.00465232,-9.48984,0
129263274.0,-3.02,0.66,-29.86,-28.28,330.27,329.3,0.02,0.02,-139.0,168.0,168.0,-2.629012,0.5112334,0.0108006,-4.937874,-0.1358081,-8.345619,1
189063511.0,-1.59,0.14,-29.64,-27.99,142.12,141.68,0.0,0.0,-388.0,-188.0,-188.0,2.24466,0.9108748,0.04007039,-0.01425146,0.03163423,-9.781609,0
230963411.0,3.0,1.67,-2.96,-2.65,92.45,95.94,0.01,0.01,-6.0,-261.0,-261.0,-0.9038545,2.013149,0.1970843,1.000002,1.000001,1.000002,0
207263728.0,-15.14,-13.75,-25.07,-23.7,122.73,124.6,0.0,0.0,-300.0,-98.0,-98.0,2.495618,-3.049951,0.0498504,1.000002,1.000001,1.000002,0
189163471.0,-1.55,1.1,-29.7,-31.69,142.11,141.67,0.0,0.0,-389.0,-194.0,-194.0,-0.2044109,2.360304,0.04242804,-0.02240965,0.02383202,-9.811895,0
354563951.0,-7.94,34.89,-3.56,18.34,295.78,327.0,0.19,0.19,206.0,119.0,119.0,-1.397559,-1.956765,0.01250043,-0.4034642,0.01894709,-9.826669,3
90213900.0,0.02,-0.095,2.47,2.27,334.935,334.13,0.0,0.0,202.0,150.5,150.5,0.9623904,-2.182259,0.04090961,-0.2706541,0.02059443,-9.833061,0
84413721.0,-0.54,-0.595,-6.27,-6.525,327.925,327.53,0.0,0.0,90.0,174.5,174.5,-1.673209,1.759598,0.01603461,-1.409433,-0.03543464,-9.785311,0
267563765.0,0.99,-1.21,-28.57,-30.04,89.05,93.11,0.48,0.48,-226.0,-196.0,-196.0,-0.5441973,-2.287093,0.03527517,-0.5272231,0.02492536,-9.96147,2
124013708.0,-1.585,0.455,-29.945,-29.385,330.435,329.785,0.13,0.13,-107.0,159.0,159.0,0.1030481,2.846753,0.04836246,-5.764442,-0.01179568,-8.295375,1
365313816.0,0.94,0.005,9.95,-0.085,350.08,323.19,0.04,0.04,155.0,180.0,180.0,-0.820536,-2.068371,0.0220165,-1.074078,0.00486527,-9.809507,3
363313783.0,1.255,-0.1,9.92,-0.085,350.92,324.02,0.05,0.05,158.0,178.0,178.0,-2.227642,0.3050852,0.05811263,-0.1708994,0.02136566,-9.912436,3
352663878.0,2.8,7.52,8.08,16.45,79.42,47.65,0.07,0.07,-21.0,-209.0,-209.0,-1.613281,-1.360203,0.00974927,-1.339824,-0.00444808,-9.728014,3
217213913.0,-0.245,-0.395,1.86,1.6,34.07,33.185,0.0,0.0,239.5,-77.5,-77.5,-1.006779,1.912189,-0.1330132,1.000002,1.000001,1.000002,0
104563991.0,-0.13,1.25,-1.48,0.11,329.75,329.06,0.0,0.0,154.0,166.0,166.0,0.6966752,-1.793858,-0.05535265,-1.307446,0.01457533,-9.719045,0
406663936.0,-0.93,2.93,-29.08,-30.95,193.49,193.17,0.0,0.0,-466.0,-12.0,-12.0,1.891694,-1.325702,0.0471027,0.05251004,0.00329237,-9.764635,0
390713652.0,-9.99,0.18,0.205,-0.15,272.985,299.83,0.0,0.0,70.5,227.0,227.0,-2.683146,-0.08994593,0.05936516,-1.727377,-4.141175,-8.852151,3
159563649.0,-0.29,3.35,-29.99,-30.62,334.81,334.34,0.0,0.0,-85.0,131.0,131.0,-2.638913,0.6622939,0.04878468,-4.798996,-0.09915918,-8.370336,1
415963548.0,0.93,0.54,-19.36,-17.3,203.04,201.94,0.0,0.0,-390.0,28.0,28.0,1.554383,1.839883,0.02991374,-0.00569624,0.01127124,-9.750807,0
390113892.0,-9.98,0.18,0.53,-0.14,273.645,300.52,0.0,0.0,73.0,226.5,226.5,0.3538238,2.593032,0.04914504,-1.840608,-4.250619,-8.909753,3
258363280.0,-6.62,-10.02,-27.02,-23.85,91.31,96.15,0.39,0.39,-196.0,-115.0,-115.0,0.06463793,2.870893,-0.00116421,1.000002,1.000001,1.000002,2
311713598.0,0.445,0.69,-19.34,-19.425,145.33,145.145,0.19,0.19,-326.5,-176.5,-176.5,0.00336305,0.00337096,-0.0062828,0.03464779,-0.00480725,-9.818044,0
401963317.0,-5.85,-5.41,-23.64,-24.31,189.2,192.35,0.0,0.0,-421.0,33.0,33.0,2.343487,0.3599051,0.03817297,-0.04807498,0.00090846,-9.85417,0
70463470.0,0.08,-0.96,0.17,1.35,3.8,3.15,0.0,0.0,232.0,46.0,46.0,0.8621404,1.844385,-0.05881811,-0.361432,-0.01712172,-10.11048,0
308163352.0,-0.91,-2.23,0.62,1.32,143.48,143.1,0.83,0.83,-157.0,-170.0,-170.0,0.00340361,0.00343619,-0.003389,0.00453866,-0.00389924,-9.817409,0
140563752.0,-2.07,2.52,-29.93,-31.52,329.83,328.98,0.02,0.02,-155.0,150.0,150.0,-1.911716,-1.80332,0.05497788,-4.527739,-0.2742059,-8.485325,1
175314013.0,-2.305,0.58,-29.72,-29.95,147.745,146.48,0.0,0.0,-403.5,-178.0,-178.0,-2.660725,-0.2975574,0.1149155,-4.751787,-0.09690481,-8.417719,0
106763944.0,-0.09,1.39,3.68,4.1,329.78,329.25,0.02,0.02,206.0,165.0,165.0,0.6828103,-4.179961,0.04579997,-0.2915027,0.01650715,-9.858897,0
97713399.0,0.31,0.925,-10.295,-9.66,325.34,322.945,0.0,0.0,76.5,175.0,175.0,-1.759434,-1.534532,0.03455457,-0.5981955,-0.01472658,-9.829626,0
298763780.0,5.43,-9.67,25.62,26.34,152.69,122.79,0.51,0.51,127.0,-149.0,-149.0,4.770662,-6.438904,-29.04436,-0.0598773,-0.6760794,-8.213665,2
177963786.0,-1.93,1.54,-29.57,-31.16,146.19,145.45,0.0,0.0,-399.0,-179.0,-179.0,1.634674,1.954591,0.02904098,-5.165488,-0.2677291,-9.088795,0
420763294.0,-1.64,1.1,-20.62,-21.5,195.94,192.43,0.0,0.0,-402.0,-3.0,-3.0,-1.192647,-1.928233,0.03430864,0.04333521,0.0260852,-9.779291,0
396064011.0,-9.95,0.15,-0.99,-0.15,266.91,293.66,0.0,0.0,45.0,234.0,234.0,-2.281542,-0.8627327,0.02904249,-0.412704,-0.8545217,-10.04905,3
229513991.0,-4.44,-6.065,14.18,13.045,89.42,88.1,0.0,0.0,151.5,-182.5,-182.5,2.120298,1.953627,0.1182791,1.000002,1.000001,1.000002,0
278263650.0,-29.31,-27.84,-6.33,-9.17,91.3,92.18,0.34,0.34,-23.0,41.0,41.0,-0.1402641,-1.864135,0.1150584,-1.373864,-0.0207928,-9.924562,2
22863351.0,0.0,0.04,0.0,0.02,3.18,3.18,0.0,0.0,232.0,52.0,52.0,0.00032569,0.00036053,0.00032183,-0.00155913,-0.00154611,-9.816607,0
91914053.0,0.19,0.025,3.515,3.165,335.02,334.33,0.0,0.0,215.0,149.0,149.0,1.153725,2.385347,0.02361201,-1.27692,-0.06236349,-9.90232,0
386663606.0,-9.91,0.18,1.28,-0.14,277.58,304.51,0.0,0.0,89.0,221.0,221.0,-2.161197,-1.507285,0.04542812,-1.658599,-4.135086,-8.743839,3
254663927.0,-4.04,-4.47,-15.1,-12.42,90.0,89.36,0.25,0.25,-61.0,-152.0,-152.0,-0.697566,2.09837,1.347033,1.000002,1.000001,1.000002,2
371713755.0,-1.34,0.21,9.905,-0.17,346.025,319.325,0.01,0.01,142.5,190.5,190.5,0.5360571,2.338813,0.04938367,-0.1411909,0.00309093,-10.09869,3
59013885.0,0.23,0.255,0.16,0.3,3.8,3.415,0.0,0.0,235.5,42.0,42.0,-0.3171115,2.320049,0.03984237,-0.05140157,0.03464446,-9.802334,0
355163711.0,-1.98,90.5,-9.52,29.89,209.6,219.76,0.3,0.3,-58.0,-531.0,-531.0,1.858113,-1.747062,-0.00071508,-0.2462664,0.00673803,-9.666567,3
327463962.0,-0.65,0.68,-12.73,-14.67,146.06,144.91,0.0,0.0,-286.0,-178.0,-178.0,0.0031478,0.00302525,-0.0171166,0.01269075,0.04745642,-9.817842,0
70463470.0,0.08,-0.96,0.17,1.35,3.8,3.15,0.0,0.0,232.0,46.0,46.0,-2.141134,-1.418503,-0.05799786,-0.3242759,-0.03944265,-10.27074,0
366313416.0,0.76,0.065,9.965,-0.105,349.605,322.735,0.03,0.03,154.0,181.5,181.5,0.7521764,-2.263716,0.0669935,-0.4510361,0.05212111,-9.890003,3
85013481.0,-0.425,-0.34,1.52,1.48,327.89,327.365,0.0,0.0,175.0,171.5,171.5,-2.14193,-0.9900652,0.00590366,-0.8747677,0.00089937,-9.888659,0
274713404.0,-13.31,-14.44,-10.2,-9.195,90.065,89.495,0.16,0.16,-24.5,-55.0,-55.0,-2.400072,-0.3804214,0.03700157,-1.086395,-0.01417326,-9.777048,2
404463983.0,-2.85,-1.45,-28.56,-30.01,191.34,189.92,0.0,0.0,-466.0,-15.0,-15.0,1.45854,-1.720071,0.04967308,-0.04384631,-0.0171395,-9.992056,0
347863299.0,0.02,0.3,-0.36,-1.77,145.8,145.37,0.01,0.01,-167.0,-179.0,-179.0,2.309208,1.564434,0.1156815,-3.631872,-0.0257271,-9.13109,0
107063824.0,0.0,-1.61,3.13,2.34,329.78,329.26,0.04,0.04,197.0,166.0,166.0,-0.4001277,-2.157055,0.0842993,-0.4571882,-0.0499984,-9.841408,0
369063982.0,0.3,0.18,9.99,-0.16,348.07,321.23,0.02,0.02,149.0,186.0,186.0,-0.9185274,2.738505,-0.00514061,-1.47274,-0.00714963,-9.679309,3
201763429.0,-6.18,-3.85,-28.88,-31.48,135.21,134.33,0.0,0.0,-368.0,-196.0,-196.0,-1.349735,3.842111,0.05509371,1.000002,1.000001,1.000002,0
130463627.0,-3.47,0.72,-29.81,-28.36,330.39,329.31,0.01,0.01,-147.0,170.0,170.0,1.276353,-2.282769,0.05758065,-4.908169,-0.09695022,-8.416477,1
357363664.0,3.37,0.98,8.67,0.08,33.82,6.67,0.38,0.38,236.0,29.0,29.0,-2.02795,-1.189651,-0.02510586,-0.7884094,-0.01110819,-9.874582,3
398613824.0,4.985,-21.005,-7.905,17.725,235.985,245.265,0.0,0.0,50.0,395.0,395.0,0.04256364,2.403644,0.03866208,-0.03592272,0.03099601,-9.842945,0
317613737.0,0.475,0.425,-7.35,-7.505,151.24,151.015,0.105,0.105,-259.0,-157.5,-157.5,0.0032825,0.00325503,-0.01293212,-0.00286035,0.00159235,-9.818009,0
151713457.0,-0.685,1.4,-29.99,-30.17,331.885,331.215,0.0,0.0,-99.5,143.0,143.0,-2.651957,-0.2739799,0.1011688,-4.599658,-0.01916542,-8.473737,1
372063615.0,-1.39,0.21,9.9,-0.17,345.72,319.02,0.01,0.01,141.0,191.0,191.0,0.03010874,2.346533,0.04149605,-0.0736571,0.01493325,-9.866467,3
230063771.0,3.74,9.19,-14.76,-16.35,90.44,83.38,0.0,0.0,8.0,-314.0,-314.0,1.889498,-2.920348,-0.4679309,1.000002,1.000001,1.000002,0
332713528.0,-0.16,0.15,-2.555,-2.325,151.315,150.64,0.0,0.0,-207.5,-157.5,-157.5,0.002986,0.0029534,-0.01732069,0.02755372,-0.00506946,-9.816162,0
345964059.0,0.04,2.01,-9.5,-8.85,145.79,145.28,0.0,0.0,-224.0,-177.0,-177.0,2.868188,0.6638807,0.05623237,-4.85734,-0.06731885,-8.847857,0
100063292.0,-0.12,-0.57,2.33,0.51,327.83,326.92,0.0,0.0,179.0,171.0,171.0,1.983091,-1.371141,0.07432754,-1.12724,-0.0127563,-9.906274,0
157463656.0,-0.37,-0.16,-29.99,-29.4,334.81,334.47,0.0,0.0,-89.0,134.0,134.0,-1.759183,-1.96521,-1.489e-05,-4.770864,-0.02239703,-8.29043,1
88013947.0,0.37,1.19,-16.79,-16.415,332.865,330.865,0.0,0.0,27.5,149.5,149.5,-2.178494,1.316045,-0.00097958,-1.463256,0.01998527,-9.662874,0
361513670.0,1.385,-0.16,9.9,-0.215,351.62,324.71,0.1,0.1,160.0,176.0,176.0,-1.305405,-1.911076,0.1012862,-0.9420151,-0.03584635,-9.855022,3
104663951.0,-0.15,-0.84,-0.42,-1.29,329.75,329.06,0.0,0.0,161.0,161.0,161.0,2.421216,0.5882474,-0.04370782,-1.302763,0.04202329,-9.836246,0
332863468.0,-0.15,-0.7,-0.63,1.07,151.33,150.24,0.0,0.0,-183.0,-157.0,-157.0,0.0030093,0.00294589,-0.01734467,-0.03614641,-0.00150266,-9.81624,0
298164020.0,26.58,24.56,14.15,17.34,189.31,186.1,0.68,0.68,-111.0,-266.0,-266.0,4.964212,-6.749538,-17.96208,-0.1579327,-0.7246681,-6.989695,2
127663914.0,-2.04,1.22,-29.93,-28.01,330.05,328.91,0.06,0.06,-125.0,163.0,163.0,-0.0746657,2.66657,0.04684872,-5.265348,-0.2473227,-8.513121,1
304264079.0,-3.17,-4.67,0.82,-0.15,145.45,144.14,0.25,0.25,-156.0,-142.0,-142.0,-9.293966,-5.28772,4.339343,28.63787,-11.68227,-7.634105,0
299013680.0,8.37,-6.18,28.05,29.41,164.87,134.695,0.5,0.5,152.5,-135.5,-135.5,4.697015,-6.275308,-33.17135,0.8051901,-0.2061492,-8.355368,2
205363655.0,-1.39,-0.35,-29.64,-31.13,127.4,126.21,0.0,0.0,-341.0,-229.0,-229.0,2.111344,1.088861,-0.08793348,1.000002,1.000001,1.000002,0
278413590.0,-23.52,-23.185,-12.48,-11.17,92.22,93.69,0.34,0.34,-57.0,12.0,12.0,-1.371428,2.447989,0.1089676,-1.510294,-0.03354703,-9.735563,2
403863390.0,-4.87,-4.95,-29.33,-29.03,191.74,193.11,0.0,0.0,-468.0,19.0,19.0,-1.786711,-1.360756,0.02177007,-0.01696471,-0.02642636,-9.745964,0
303563526.0,-6.6,-4.19,1.48,1.94,145.64,147.31,0.34,0.34,-148.0,-105.0,-105.0,0.00356797,0.00022909,-0.00437529,-0.06063483,0.4000197,-9.870925,0
110664050.0,0.23,-2.15,2.8,2.95,327.91,327.28,0.15,0.15,186.0,177.0,177.0,1.837383,-1.843095,0.0805098,-4.660214,0.03163899,-8.56194,1
374163608.0,-1.73,0.21,9.84,-0.16,343.75,317.08,0.01,0.01,135.0,196.0,196.0,1.979653,1.352026,0.02685603,-0.02294888,0.05015053,-9.818743,3
336563654.0,-0.64,1.38,-19.23,-16.97,144.8,142.99,0.0,0.0,-310.0,-177.0,-177.0,0.00293231,0.00292431,-0.01742253,-0.00948857,0.00144804,-9.818365,0
239764056.0,28.08,25.7,-12.42,-12.19,84.88,86.36,0.59,0.59,-77.0,-439.0,-439.0,-0.04937525,-3.013285,-0.3697185,1.000002,1.000001,1.000002,0
186463718.0,-1.39,0.17,-29.76,-27.94,144.21,143.63,0.0,0.0,-394.0,-185.0,-185.0,-1.420357,1.844267,0.02594384,-0.05785522,0.01233971,-9.890392,0
77863842.0,-0.56,-0.37,-11.01,-8.88,328.88,329.22,0.0,0.0,89.0,168.0,168.0,0.01617746,-2.384477,0.03498914,-0.2379504,-0.05533947,-9.860388,0
53063766.0,0.32,0.39,0.17,-1.59,3.8,1.15,0.0,0.0,233.0,48.0,48.0,0.05449734,2.528039,0.0522643,0.00651248,-0.07271755,-9.846181,0
365963556.0,0.82,0.05,9.96,-0.1,349.78,322.9,0.03,0.03,154.0,181.0,181.0,-1.518173,1.806218,0.03407191,-0.6974436,-0.02425623,-9.868201,3
82913488.0,-0.41,0.255,-13.87,-13.45,327.945,327.295,0.0,0.0,54.0,168.0,168.0,-1.825441,1.504727,-0.2972889,-0.3943578,0.00360384,-10.29052,0
317513777.0,0.41,0.085,-10.28,-10.61,151.205,151.345,0.11,0.11,-286.0,-154.5,-154.5,0.00329346,0.00326587,-0.01289333,-0.00863049,-0.00249919,-9.818192,0
338913547.0,0.7,0.28,3.55,3.23,143.53,142.37,0.0,0.0,-120.0,-184.0,-184.0,-2.000662,-1.732604,0.1442356,-0.2431537,0.03086649,-10.09166,0
438613651.0,0.555,0.42,3.61,3.555,206.65,206.06,0.0,0.0,-196.5,52.0,52.0,0.0010659,0.00112029,0.00112914,-0.00153338,-0.00102349,-9.816849,4
71763783.0,0.22,1.06,0.07,-1.23,3.8,3.25,0.0,0.0,235.0,40.0,40.0,0.4893413,-1.985044,0.04509003,-1.484332,-0.03330268,-9.699164,0
319263910.0,0.45,1.97,3.57,3.77,151.43,151.23,0.07,0.07,-141.0,-160.0,-160.0,0.00327179,0.00321813,-0.01302482,-0.01227063,-0.01769005,-9.818122,0
280513583.0,-3.96,-1.82,28.64,29.56,88.74,92.74,0.53,0.53,288.5,-240.5,-240.5,0.6389603,-2.384561,0.04066662,-0.2191944,-0.01505749,-9.818926,2
339963960.0,0.83,-1.03,3.48,3.46,143.49,143.29,0.0,0.0,-125.0,-183.0,-183.0,1.288602,2.064402,0.2164183,-1.326838,-0.722133,-10.11588,0
23663864.0,0.0,0.04,0.0,0.02,3.08,3.08,0.0,0.0,232.0,52.0,52.0,0.00027471,0.00033563,0.00034451,-0.00043607,-0.00176838,-9.818019,0
22863351.0,0.0,0.04,0.0,0.02,3.18,3.18,0.0,0.0,232.0,52.0,52.0,0.00032795,0.00030906,0.00032749,-0.00063724,-0.00106985,-9.817764,0
418213481.0,0.245,0.055,3.39,3.25,205.625,205.16,0.0,0.0,-204.0,51.5,51.5,-2.106566,-1.055506,0.0366016,-0.0342913,-0.05114283,-9.827565,0
139413379.0,-2.27,0.36,-29.92,-30.73,329.875,329.42,0.02,0.02,-160.5,152.0,152.0,2.622387,0.7000379,0.04611428,-4.731089,-0.32274,-8.809155,1
254464007.0,-19.14,-18.8,-7.37,-5.5,90.72,89.18,0.27,0.27,0.0,-23.0,-23.0,-0.2209651,2.521855,0.7965899,1.000002,1.000001,1.000002,2
134363733.0,-2.43,-1.52,-29.91,-32.6,330.11,329.39,0.01,0.01,-167.0,172.0,172.0,-0.1307352,2.617389,0.06224048,-4.704588,-0.2440155,-8.764029,1
166914041.0,-0.225,2.425,-29.99,-29.73,335.72,334.805,0.0,0.0,-97.0,125.0,125.0,0.4401515,-2.54581,0.08556037,-4.852662,-0.05049211,-8.400791,1
307513612.0,-1.275,-0.965,-13.535,-13.775,143.67,143.045,0.94,0.94,-291.5,-170.5,-170.5,0.0034384,0.00342072,-0.00301184,-0.03567139,0.00838563,-9.816392,0
238363783.0,16.1,17.89,-25.54,-23.19,86.32,83.54,0.81,0.81,-154.0,-368.0,-368.0,-1.065271,-2.515941,-0.2339315,1.000002,1.000001,1.000002,0
100963765.0,0.41,0.62,4.19,5.62,327.89,327.74,0.0,0.0,204.0,171.0,171.0,-0.7991816,-2.079573,0.01400409,-1.264604,0.01971731,-9.810844,0
356963824.0,8.91,44.07,-3.72,51.41,89.49,88.47,0.27,0.27,237.0,-504.0,-504.0,-1.314003,2.094816,0.06884107,-1.173887,-0.03041573,-9.839322,3
269413858.0,-19.85,-17.985,19.26,23.025,86.445,91.71,0.68,0.68,251.0,-114.5,-114.5,-1.007716,2.219889,0.1471229,-0.687076,-0.02047801,-10.16235,2
81363275.0,0.44,-0.59,3.91,2.36,327.92,327.51,0.0,0.0,199.0,165.0,165.0,-1.364003,-1.960992,0.01357498,-0.5910369,0.01089655,-9.861982,0
403463550.0,-6.82,-6.27,-29.11,-28.24,191.98,193.07,0.0,0.0,-466.0,26.0,26.0,0.2025614,-2.092485,0.02528908,0.02864091,-0.0396915,-8.892115,0
289563295.0,-14.87,-16.31,-24.87,-23.18,94.81,96.09,0.34,0.34,-186.0,-72.0,-72.0,0.3635029,1.658412,0.08380482,-0.1705925,-0.03300254,-9.865078,2
235313337.0,0.15,0.18,4.06,4.225,90.07,89.56,0.0,0.0,93.5,-231.5,-231.5,1.668538,-1.502507,-0.2530528,1.000002,1.000001,1.000002,0
388463719.0,-9.96,0.19,0.87,-0.14,275.53,302.43,0.0,0.0,81.0,224.0,224.0,-2.404223,1.252595,0.06000399,-1.730833,-4.223942,-8.869137,3
358564017.0,-9.89,86.41,-0.17,29.45,277.64,276.98,0.21,0.21,204.0,-453.0,-453.0,-0.4862878,-2.303252,0.04620049,-0.2290348,0.01225412,-9.850389,3
258163360.0,-22.15,-22.58,-18.85,-15.0,93.44,93.71,0.38,0.38,-101.0,4.0,4.0,0.5983834,2.938452,0.07050894,1.000002,1.000001,1.000002,2
427513926.0,-0.055,-0.095,2.925,2.685,206.545,206.305,0.0,0.0,-206.0,56.0,56.0,0.00126644,0.00133014,0.00165717,-0.00182398,-0.00010772,-9.817476,4
243263489.0,25.98,29.05,-15.15,-13.46,87.11,81.73,0.33,0.33,-55.0,-443.0,-443.0,0.4211068,0.7848498,-0.2492374,1.000002,1.000001,1.000002,2
373313948.0,-1.6,0.21,9.87,-0.16,344.545,317.87,0.01,0.01,137.5,194.0,194.0,-1.978434,-1.324203,0.0413512,0.03802115,-0.01006378,-9.775366,3
142063985.0,-1.79,-0.75,-29.95,-30.89,329.75,329.15,0.01,0.01,-154.0,147.0,147.0,-2.199463,-1.546972,0.04181506,-4.59087,-0.289765,-8.381872,1
48314000.0,0.0,0.09,0.0,0.08,1.42,1.42,0.0,0.0,232.0,52.0,52.0,2.030685,1.546195,0.04484735,-0.00186324,0.00694735,-10.12085,0
366463356.0,0.73,0.07,9.97,-0.11,349.53,322.66,0.03,0.03,153.0,182.0,182.0,1.07926,-2.178398,0.07134109,-0.3927571,-0.00062466,-9.90966,3
371763735.0,-1.35,0.21,9.9,-0.17,345.98,319.28,0.01,0.01,142.0,191.0,191.0,-1.836682,-1.662995,0.04308457,-0.1329104,-0.01343215,-10.09628,3
159263769.0,-0.33,0.11,-29.99,-29.66,334.82,334.05,0.0,0.0,-91.0,133.0,133.0,1.103952,-2.549654,0.04711684,-4.92165,-0.01950585,-8.423931,1
122963295.0,-0.6,0.19,-29.07,-29.85,330.67,329.97,0.16,0.16,-94.0,153.0,153.0,0.6609471,-2.822041,0.06179019,-5.794084,0.1421566,-7.832378,1
382463620.0,-9.17,0.18,3.99,-0.15,293.1,309.34,0.0,0.0,107.0,212.0,212.0,-0.2539135,2.62962,0.05596459,-1.68746,-4.173262,-8.939844,3
105013811.0,-0.145,-0.18,1.89,1.79,329.755,329.195,0.0,0.0,184.0,165.5,165.5,2.356411,0.02846157,0.04826858,-1.09099,0.01010024,-9.936774,0
256364080.0,7.95,12.7,15.17,14.45,90.52,92.76,0.38,0.38,171.0,-362.0,-362.0,-1.295182,1.665266,-0.4114048,1.000002,1.000001,1.000002,2
114963996.0,-0.22,1.14,2.3,0.9,323.06,322.75,0.17,0.17,171.0,181.0,181.0,1.919203,2.467691,0.06738694,-5.739605,0.3133395,-8.477573,1
167913641.0,-9.085,-8.685,5.455,6.135,340.955,334.62,0.01,0.01,227.5,232.0,232.0,-0.3354618,-2.732387,0.03521766,-4.827291,-0.03124074,-8.314147,1
317363837.0,0.26,-0.97,-14.63,-13.59,151.15,151.83,0.11,0.11,-323.0,-149.0,-149.0,0.00327597,0.00321263,-0.01285985,0.0179924,-0.00783289,-9.818074,0
203263662.0,-3.02,1.51,-29.49,-28.31,128.26,125.2,0.0,0.0,-333.0,-223.0,-223.0,2.515417,0.7183903,-0.04451216,1.000002,1.000001,1.000002,0
311763578.0,0.46,1.17,-19.53,-21.19,145.36,145.32,0.19,0.19,-328.0,-179.0,-179.0,0.00335657,0.00330484,-0.00632305,-0.00886131,0.01743712,-9.817733,0
326863369.0,-0.37,1.22,-20.26,-20.89,146.47,143.94,0.0,0.0,-321.0,-189.0,-189.0,0.00305096,0.00300598,-0.01712592,-0.01630596,-0.0129323,-9.817636,0
204163302.0,-2.0,-1.08,-29.76,-31.65,127.64,128.01,0.0,0.0,-348.0,-218.0,-218.0,2.151726,1.139405,-0.04337954,1.000002,1.000001,1.000002,0
301263613.0,-0.91,1.6,-29.57,-27.42,167.48,163.07,0.42,0.42,-440.0,-99.0,-99.0,3.779169,-5.122776,-4.653384,-1.290897,-2.376315,-7.661502,2
86513714.0,0.235,-0.03,4.05,4.08,327.9,327.455,0.0,0.0,201.5,170.0,170.0,-2.257773,-0.3678904,0.02635282,-0.1808012,-0.04997531,-9.757715,0
203763462.0,-2.37,-0.62,-29.68,-31.77,127.83,126.61,0.0,0.0,-343.0,-224.0,-224.0,-1.151319,-1.736112,-0.2733008,1.000002,1.000001,1.000002,0
116763276.0,0.43,0.83,2.32,0.61,323.02,322.58,0.06,0.06,171.0,179.0,179.0,0.6283352,3.239099,0.06626532,-5.878848,0.3696585,-7.849483,1
113613703.0,-1.59,0.05,-19.705,-19.155,323.68,321.73,0.16,0.16,-32.0,185.5,185.5,1.872162,2.293752,0.07087709,-5.479643,0.2190414,-8.739672,1
288763615.0,-28.95,-29.33,2.29,3.4,90.77,90.12,0.27,0.27,81.0,41.0,41.0,-2.3675,-0.4469473,0.04072876,-0.2434988,-0.02934946,-9.813401,2
168263501.0,-2.73,-6.4,19.35,18.02,346.78,343.3,0.01,0.01,332.0,172.0,172.0,1.112712,2.392513,0.04335593,-4.945812,-0.1089113,-8.703228,0
429314039.0,0.365,-0.1,2.625,2.515,206.66,206.04,0.0,0.0,-205.0,56.0,56.0,0.0013179,0.00125278,0.00133551,-0.00208054,-0.00064887,-9.817991,4
55463639.0,0.11,-0.72,0.14,-1.26,3.8,3.18,0.0,0.0,234.0,41.0,41.0,-1.783257,-1.262737,0.0202234,0.01750643,0.00780671,-8.775858,0
417163901.0,-0.11,-1.48,-3.55,-2.91,205.4,205.12,0.0,0.0,-279.0,55.0,55.0,-1.23752,-1.98941,0.02655095,0.00142984,-0.01937561,-9.842475,0
295463434.0,25.48,29.42,-15.11,-10.73,122.95,108.4,0.33,0.33,-93.0,-462.0,-462.0,1.811843,1.583477,0.03121307,-1.119904,0.02347274,-9.832364,2
87363374.0,0.37,-1.4,2.51,2.27,328.07,327.43,0.0,0.0,189.0,170.0,170.0,-2.478364,-0.2949248,0.1456329,-0.6897292,-0.02467103,-10.2932,0
57163792.0,0.0,0.34,0.15,1.89,3.8,2.98,0.0,0.0,235.0,49.0,49.0,-1.136464,2.069576,0.0384232,0.02309962,-0.004828,-9.781399,0
167863661.0,-9.28,-11.02,5.07,6.58,340.08,333.44,0.01,0.01,208.0,245.0,245.0,-1.276749,2.276116,0.04453044,-4.876675,-0.1163888,-8.667775,1
365463756.0,0.92,0.02,9.95,-0.09,350.01,323.12,0.03,0.03,155.0,180.0,180.0,-0.5165784,-2.211123,-0.00096834,-0.9961774,0.0212455,-9.883678,3
369363862.0,0.26,0.18,9.99,-0.16,347.88,321.04,0.02,0.02,148.0,186.0,186.0,2.238683,-0.5648566,0.04382863,-1.246018,0.01748473,-9.911666,3
95913286.0,0.37,0.24,4.175,4.04,323.065,321.925,0.0,0.0,185.0,183.5,183.5,2.396656,0.8177251,0.05042686,-1.115269,-0.00510226,-10.09126,0
232613584.0,-1.105,-0.845,-19.775,-19.505,90.885,91.045,0.01,0.01,-128.5,-224.5,-224.5,-2.302597,1.514242,0.2495466,1.000002,1.000001,1.000002,0
100863805.0,0.36,-0.33,4.14,2.28,327.88,327.74,0.0,0.0,200.0,166.0,166.0,-2.302244,-0.07649016,0.03407884,-1.322471,0.02550451,-9.817862,0
419263894.0,0.42,1.47,3.93,4.89,205.72,205.16,0.0,0.0,-193.0,51.0,51.0,2.002183,1.16457,0.03357552,0.00380586,0.02249189,-9.80255,0
165063948.0,-0.03,0.21,-29.99,-29.78,335.27,334.67,0.0,0.0,-98.0,131.0,131.0,-2.169943,1.510598,0.05897564,-4.832809,-0.1035595,-8.515574,1
104514011.0,-0.145,-0.03,-2.345,-2.02,329.745,329.07,0.0,0.0,140.5,166.0,166.0,2.396018,0.4278606,-0.05660337,-1.394251,0.08961752,-9.732369,0
278063730.0,-29.69,-28.66,-4.35,-8.31,90.79,89.91,0.35,0.35,-10.0,47.0,47.0,2.120492,-1.235755,0.09306765,-1.15029,-0.01652849,-10.15565,2
81564028.0,0.39,-0.72,3.82,2.17,327.91,327.56,0.0,0.0,197.0,166.0,166.0,-2.264605,0.5132418,0.0251247,-0.4258602,0.01972841,-9.874674,0
93363473.0,-1.48,-1.0,-19.33,-17.6,325.13,321.62,0.0,0.0,-29.0,187.0,187.0,-0.5338497,2.363663,0.04694299,-0.8720345,0.03271766,-9.868385,0
350663845.0,-10.25,91.39,-18.1,19.83,19.32,27.24,0.0,0.0,193.0,-520.0,-520.0,-1.991259,1.262645,0.04240675,-0.6547025,-0.0030599,-9.781004,3
354663911.0,-6.64,12.53,4.12,4.9,310.5,337.26,0.29,0.29,206.0,119.0,119.0,1.463337,-1.824747,0.03050059,-0.3751906,0.00264544,-9.850224,3
82113808.0,0.315,0.175,3.295,3.22,327.9,327.465,0.0,0.0,196.0,167.5,167.5,1.484897,-1.878308,0.05655058,-0.2130957,-0.00020808,-9.862928,0
239963976.0,28.27,27.17,-4.81,-3.92,88.66,89.13,0.56,0.56,-9.0,-455.0,-455.0,-1.913108,-1.554859,-0.2568562,1.000002,1.000001,1.000002,0
92363873.0,-0.09,-1.34,1.91,2.85,334.5,334.58,0.0,0.0,206.0,152.0,152.0,0.0356738,-1.787006,0.03142212,-1.559531,-0.0113709,-9.572154,0
334213761.0,0.515,0.38,3.66,3.375,151.435,151.26,0.0,0.0,-144.5,-159.5,-159.5,0.00301465,0.00295109,-0.01730251,0.00886024,0.03627096,-9.817848,0
312764011.0,0.37,1.44,-6.88,-7.88,145.71,145.17,0.25,0.25,-236.0,-173.0,-173.0,0.00333067,0.00340083,-0.00737052,0.02120989,-0.01686399,-9.817792,0
258863913.0,27.71,29.72,-6.85,-10.53,88.05,88.08,0.52,0.52,-54.0,-455.0,-455.0,-0.1810862,-2.375926,-0.02080243,1.000002,1.000001,1.000002,2
383363260.0,-9.79,0.18,2.03,-0.15,281.34,308.34,0.0,0.0,103.0,214.0,214.0,1.099823,2.367384,0.04667962,-1.669271,-4.197047,-8.885394,3
359513637.0,8.235,39.57,-0.545,46.825,51.395,224.04,0.2,0.2,329.5,-365.5,-365.5,-2.028034,0.6084281,0.3409807,-0.2058966,-0.05899569,-10.14294,3
363213823.0,1.265,-0.105,9.915,-0.09,350.96,324.055,0.055,0.055,158.0,178.0,178.0,0.09029831,2.380516,0.05892184,-0.2077772,-0.00777239,-9.83685,3
279763883.0,27.4,24.32,11.79,14.21,92.64,86.77,0.41,0.41,172.0,-433.0,-433.0,-2.406734,-0.08777194,0.05205934,-0.5846776,-0.03150593,-9.838299,2
259313733.0,29.865,30.235,0.44,4.5,89.895,82.765,0.44,0.44,109.5,-461.0,-461.0,2.453172,-0.1133839,0.0724844,0.8271775,0.8961984,-0.2548549,2
198013679.5,-2.46,0.205,-29.55,-29.555,135.595,133.915,0.0,0.0,-363.5,-207.0,-207.0,-0.962409,-1.774847,-0.1476957,1.000002,1.000001,1.000002,0
240863616.0,-21.02,-20.12,19.13,18.39,87.61,88.35,0.45,0.45,242.0,-66.0,-66.0,2.932168,1.49332,0.1282398,1.000002,1.000001,1.000002,0
24063704.0,0.0,0.04,0.0,0.02,3.03,3.03,0.0,0.0,232.0,52.0,52.0,0.00030838,0.000322,0.00027471,-0.00203402,-0.00137291,-9.817468,0
291663288.0,2.95,2.02,29.55,27.88,92.79,93.49,0.53,0.53,287.0,-269.0,-269.0,2.101544,1.032135,0.05485427,-0.9255126,0.00056885,-9.953691,2
382663540.0,-9.76,0.18,2.16,-0.15,282.12,309.13,0.0,0.0,106.0,213.0,213.0,2.182508,1.498677,0.04432554,-1.736075,-4.066059,-8.782211,3
106963864.0,-0.05,1.18,3.36,3.91,329.78,329.25,0.03,0.03,204.0,167.0,167.0,1.378287,2.132208,0.08066393,-0.4529404,0.03603198,-9.929463,0
322263543.0,-0.41,-0.28,-16.89,-15.17,151.53,150.94,0.03,0.03,-330.0,-156.0,-156.0,0.00316992,0.0031394,-0.01301965,-0.0164625,-0.00399704,-9.817055,0
103763478.0,-0.83,1.15,-21.18,-19.61,329.81,329.82,0.0,0.0,-24.0,165.0,165.0,0.4558376,-2.465143,0.312695,-0.5959153,-0.05907097,-10.03733,0
158763969.0,-0.35,3.93,-29.99,-29.75,334.83,333.89,0.0,0.0,-84.0,128.0,128.0,2.004661,-1.771199,0.07225233,-4.938988,0.00047154,-8.53571,1
73813796.0,-0.39,2.45,-20.27,-19.355,330.295,324.485,0.0,0.0,-18.5,157.0,157.0,-2.341776,-0.1474554,0.03111358,-0.2087445,-0.03024761,-9.835142,0
72163623.0,0.17,0.4,0.04,-1.75,3.8,3.27,0.0,0.0,233.0,40.0,40.0,2.174076,-0.7598959,0.02441431,-1.145973,0.00759568,-9.910122,0
217113953.0,-0.26,-0.385,2.045,1.885,34.07,33.385,0.0,0.0,240.5,-78.5,-78.5,1.546588,1.771624,-0.1599448,1.000002,1.000001,1.000002,0
412013462.0,0.69,0.67,-7.78,-7.91,196.625,196.765,0.0,0.0,-311.0,11.0,11.0,-2.301381,-0.1291234,0.03734433,0.00693527,0.03939023,-9.77034,0
378313614.0,-2.995,0.2,9.54,-0.145,339.78,313.215,0.0,0.0,121.0,205.0,205.0,1.35543,2.088303,0.03678329,-0.5357034,-1.232426,-9.925943,3
398263964.0,-6.97,-26.16,-6.11,25.47,256.98,274.06,0.0,0.0,209.0,415.0,415.0,0.8189319,-2.258915,0.04504267,0.08508262,0.1428842,-9.848366,3
24713444.0,0.0,0.04,0.0,0.03,2.955,2.955,0.0,0.0,232.0,52.0,52.0,0.00042385,0.00036861,0.00041758,-0.00139637,-0.00017071,-9.817076,0
161863562.0,-0.13,0.11,-29.99,-29.03,334.99,334.33,0.0,0.0,-92.0,134.0,134.0,2.722127,0.6330615,0.00051598,-5.016427,-0.09688231,-8.628499,1
309313725.0,0.56,0.585,4.73,4.625,143.48,142.83,0.52,0.52,-111.5,-182.5,-182.5,0.00342686,0.00338783,-0.00416392,-0.00833988,-0.00869446,-9.818461,0
122313555.0,0.035,0.99,-13.955,-13.075,332.525,333.0,0.1,0.1,68.0,143.5,143.5,1.092758,-2.696363,0.05680504,-5.916742,0.2093946,-7.803055,1
235564070.0,-1.52,-0.4,8.12,5.64,89.95,89.37,0.0,0.0,107.0,-226.0,-226.0,1.150436,2.237712,-0.08470703,1.000002,1.000001,1.000002,0
221114019.0,0.105,0.355,-0.06,0.22,34.07,33.575,0.0,0.0,225.5,-84.5,-84.5,0.1887131,-2.606178,-0.5558561,1.000002,1.000001,1.000002,0
231963844.0,-0.72,-1.68,-14.71,-14.66,91.81,89.64,0.01,0.01,-69.0,-230.0,-230.0,-1.290961,2.342378,-0.298992,1.000002,1.000001,1.000002,0
157913476.0,-0.365,1.52,-29.99,-29.71,334.83,335.11,0.0,0.0,-84.5,130.5,130.5,1.826397,-1.829595,0.03776047,-4.966308,-0.01231843,-8.554215,1
183913905.0,-1.97,0.215,-29.75,-29.93,144.38,143.75,0.0,0.0,-396.0,-183.0,-183.0,-1.587509,-1.484977,0.1131437,-1.043226,0.06121652,-9.851954,0
16513392.0,0.0,0.02,0.0,0.01,3.685,3.685,0.0,0.0,232.0,52.0,52.0,0.00019044,0.00014594,0.00028115,-0.00196776,-0.00163556,-9.817288,0
418964014.0,0.4,-0.85,4.08,2.75,205.7,205.43,0.0,0.0,-199.0,46.0,46.0,1.594876,-1.719011,0.05006826,0.05302767,0.01908473,-9.822681,0
359463657.0,7.97,69.55,-5.27,41.36,87.58,94.51,0.2,0.2,142.0,-535.0,-535.0,-1.868988,-2.110709,0.2565672,-0.1413861,-0.01747191,-10.12381,3
356763904.0,-9.39,69.2,-3.07,-7.42,247.49,220.98,0.29,0.29,-298.0,-283.0,-283.0,-0.9525911,2.318046,0.1187435,-1.26981,-0.03562689,-9.838081,3
210564074.0,-0.27,-2.2,6.64,5.14,102.64,101.59,0.0,0.0,64.0,-229.0,-229.0,2.526119,0.5856446,0.2957155,1.000002,1.000001,1.000002,0
56913892.0,-0.1,0.02,0.22,0.225,3.8,2.955,0.0,0.0,234.5,46.0,46.0,1.924388,1.329775,0.02561469,0.07643849,0.06652193,-9.699834,0
123463928.0,-1.2,1.92,-29.92,-27.36,330.49,328.43,0.19,0.19,-107.0,157.0,157.0,1.052497,-2.640292,0.05373709,-5.794982,0.1275699,-7.923702,1
345263506.0,0.53,-1.26,3.1,2.95,145.81,145.24,0.0,0.0,-134.0,-176.0,-176.0,-2.903415,-0.4287921,0.06798828,-4.556167,-0.042995,-8.382714,0
313063891.0,0.35,-0.85,-0.73,0.33,145.75,144.9,0.2,0.2,-173.0,-177.0,-177.0,0.0033437,0.00334566,-0.00775808,0.00422827,0.04402157,-9.817952,0
187463318.0,-2.44,-1.09,-29.51,-28.11,142.78,142.8,0.0,0.0,-394.0,-177.0,-177.0,2.031145,-1.268175,0.05331416,-0.0372414,0.04289554,-9.926718,0
320863270.0,0.71,1.61,-0.32,1.65,151.46,151.16,0.02,0.02,-163.0,-160.0,-160.0,0.00315999,0.00314674,-0.01295312,-0.0324134,0.01512755,-9.817386,0
408414069.0,-2.565,0.075,-27.81,-27.66,194.055,193.49,0.0,0.0,-457.0,0.5,0.5,2.019299,-1.467067,0.05770944,-0.0146393,0.04461091,-10.79526,0
316764077.0,0.62,0.32,-19.01,-17.11,150.5,151.19,0.08,0.08,-337.0,-158.0,-158.0,0.00324337,0.0032091,-0.01288809,0.02696418,0.01160245,-9.816785,0
25463977.0,0.0,0.04,0.0,0.03,2.87,2.87,0.0,0.0,232.0,52.0,52.0,0.00033571,0.00026564,0.00035612,-0.00181517,-0.00150047,-9.817055,0
246563835.0,-29.98,-30.96,-0.06,2.93,90.44,95.36,0.42,0.42,35.0,55.0,55.0,2.51051,-1.740539,-0.1197566,1.000002,1.000001,1.000002,2
172113627.0,0.18,-1.93,-28.795,-28.16,146.24,153.665,0.0,0.0,-410.0,-129.0,-129.0,1.806221,1.894317,0.03996585,-4.95254,-0.1009274,-8.706527,0
157363696.0,-0.37,3.51,-29.99,-30.17,334.79,334.14,0.0,0.0,-84.0,129.0,129.0,-2.523419,0.7456852,0.02331276,-4.743317,-0.05793005,-8.445798,1
219413866.0,0.15,0.125,-0.115,-0.13,34.07,33.395,0.0,0.0,222.5,-81.5,-81.5,1.92664,1.386626,-0.3185257,1.000002,1.000001,1.000002,0
334163781.0,0.51,1.95,3.63,2.81,151.43,151.26,0.0,0.0,-142.0,-162.0,-162.0,0.00291778,0.00288983,-0.01729335,0.02434788,0.03776204,-9.817048,0
201213649.0,-1.26,0.845,-29.69,-29.79,134.985,134.59,0.0,0.0,-366.5,-211.0,-211.0,-2.229602,0.8661681,0.04735611,1.000002,1.000001,1.000002,0
436763558.0,-0.41,-0.65,-0.08,1.47,206.54,205.29,0.0,0.0,-236.0,56.0,56.0,0.0011708,0.00123617,0.00118959,-0.0013931,-0.00141154,-9.816833,4
92363873.0,-0.09,-1.34,1.91,2.85,334.5,334.58,0.0,0.0,206.0,152.0,152.0,-1.311203,2.530162,0.03921649,-1.657098,-0.00039176,-9.555085,0
192513797.0,-2.995,-1.085,-29.665,-30.025,140.01,140.1,0.0,0.0,-386.0,-183.5,-183.5,-2.015794,-1.284474,-0.03908295,-1.236409,-0.1911843,-9.909391,0
152663910.0,-0.91,-1.09,-29.98,-30.41,333.75,333.86,0.0,0.0,-96.0,141.0,141.0,-0.7698396,-2.555408,0.01534995,-4.746565,-0.03308759,-8.377713,1
291413388.0,11.18,10.185,27.555,28.13,94.77,95.03,0.515,0.515,266.5,-326.0,-326.0,1.293375,-1.90843,0.05330737,-1.106713,-0.02511062,-9.888334,2
240113916.0,24.615,25.36,0.3,0.25,90.46,90.065,0.54,0.54,32.0,-445.5,-445.5,0.779811,1.611928,-0.1343172,1.000002,1.000001,1.000002,0
78563562.0,-0.87,0.28,-20.28,-21.38,328.32,326.51,0.0,0.0,-23.0,161.0,161.0,1.501562,1.334209,0.168987,-0.1967821,-0.03192525,-10.03177,0
134663613.0,-2.34,-2.23,-29.91,-28.43,330.09,329.22,0.01,0.01,-168.0,180.0,180.0,1.346466,-2.14465,0.05243406,-4.70777,-0.1997493,-8.53805,1
421763727.0,-0.39,1.32,0.27,-0.65,194.55,195.06,0.0,0.0,-234.0,6.0,6.0,0.2977316,-2.302651,0.04265945,0.01765854,0.00186608,-9.830168,4
305563559.0,0.96,1.15,0.93,2.47,145.26,145.35,0.63,0.63,-154.0,-176.0,-176.0,0.00576739,-0.0204141,-0.00469588,0.02486308,-0.2627126,-9.566408,0
217763693.0,-0.16,-1.92,0.94,1.41,34.07,33.15,0.0,0.0,231.0,-75.0,-75.0,3.049514,-1.881336,-0.123558,1.000002,1.000001,1.000002,0
297513447.0,29.56,25.665,-4.425,-16.29,205.025,228.985,0.66,0.66,-338.5,-50.0,-50.0,3.247813,-5.022219,-4.649579,-0.1239084,-0.3640628,-6.025747,2
125763841.0,-2.13,-0.51,-29.81,-31.49,330.38,329.35,0.09,0.09,-116.0,159.0,159.0,2.566952,1.104803,0.04487229,-5.638099,-0.04478774,-8.40256,1
376613461.0,-2.71,0.2,9.62,-0.14,341.385,314.8,0.01,0.01,127.0,201.0,201.0,-2.179829,-0.9252908,0.03573598,-0.06391655,-0.1231248,-9.958082,3
359813517.0,0.23,-0.525,8.74,5.355,353.705,326.74,0.265,0.265,162.0,174.0,174.0,2.326698,0.8358229,0.4033779,-0.4327585,0.02460246,-10.09195,3
289263415.0,-26.53,-25.8,-11.7,-11.54,94.23,94.85,0.3,0.3,-38.0,26.0,26.0,-1.933812,-1.422139,0.02708181,-0.1410203,-0.01077216,-9.712142,2
212213414.0,-11.17,-13.515,-13.035,-10.16,70.105,83.305,0.0,0.0,-9.5,-92.0,-92.0,3.03614,1.014699,0.165463,1.000002,1.000001,1.000002,0
170213554.0,18.27,17.375,-11.965,-11.31,81.94,84.435,0.0,0.0,-9.0,-377.5,-377.5,-1.694168,2.001089,-0.01795657,-4.826004,-0.1496748,-8.571717,0
405063743.0,-1.69,0.67,-29.05,-30.99,191.1,189.42,0.0,0.0,-466.0,-29.0,-29.0,-2.156241,-0.7148842,0.02807815,0.0291626,0.00469529,-9.8367,0
378713454.0,-3.045,0.19,9.525,-0.15,339.405,312.845,0.0,0.0,120.0,205.5,205.5,2.626672,0.07993402,0.05020715,-0.6863655,-1.610778,-9.767519,3
358863897.0,-8.22,6.8,-4.55,4.31,217.51,231.23,0.29,0.29,-181.0,155.0,155.0,-1.182712,2.012056,0.03864438,-0.2003092,-0.0062064,-9.806316,3
413113855.0,0.55,0.39,3.475,3.125,196.97,196.375,0.0,0.0,-210.5,11.0,11.0,1.023808,-2.109651,0.04404857,0.03358113,-0.06642839,-9.831335,0
430663499.0,-0.95,1.09,-20.71,-18.19,201.4,198.73,0.0,0.0,-398.0,22.0,22.0,0.00128284,0.00120196,0.00125702,-0.00193649,-0.00057763,-9.816499,4
63363811.0,0.06,1.48,-0.03,0.65,3.8,3.23,0.0,0.0,235.0,48.0,48.0,1.259437,1.947729,0.03057764,-0.05237211,0.01549714,-9.775352,0
279163290.0,28.2,27.33,-3.68,-4.16,88.81,90.4,0.47,0.47,-31.0,-455.0,-455.0,0.19816,2.448086,-2.032e-05,-1.029173,0.00803787,-9.926026,2
172263567.0,0.41,-0.7,-29.44,-27.21,146.32,149.3,0.0,0.0,-408.0,-153.0,-153.0,-0.1318609,-2.678437,0.05335405,-4.862226,-0.03702627,-8.401074,0
174963320.0,-2.03,2.29,-29.74,-31.06,147.67,145.29,0.0,0.0,-397.0,-187.0,-187.0,-2.683305,0.1849196,0.1040056,-4.737676,-0.2317059,-8.494715,0
131813920.0,-3.79,-0.865,-29.78,-30.425,330.48,329.48,0.01,0.01,-160.0,168.0,168.0,1.550653,-2.160231,0.05394873,-4.848624,-0.1791606,-8.448181,1
164563315.0,-0.09,3.87,-29.99,-30.23,335.28,334.63,0.0,0.0,-91.0,127.0,127.0,0.5420388,-2.641286,0.05725655,-4.94222,-0.00974872,-8.418521,1
164663275.0,-0.09,0.28,-29.99,-29.43,335.28,334.7,0.0,0.0,-98.0,129.0,129.0,-2.257748,-1.553033,0.04370001,-4.79857,-0.03466124,-8.250873,1
436363718.0,-0.45,-0.28,-7.14,-5.78,206.52,206.06,0.0,0.0,-310.0,60.0,60.0,0.00121875,0.00122503,0.00116495,-0.00145184,-0.0004756,-9.816799,4
419213914.0,0.395,0.255,3.965,3.77,205.715,205.195,0.0,0.0,-196.0,49.5,49.5,-0.981198,-2.16486,0.03039727,0.02279141,-0.05234306,-9.793157,0
230213711.0,2.48,1.715,-11.44,-14.515,91.035,86.45,0.0,0.0,-77.5,-255.5,-255.5,-3.159509,-0.05786228,-0.504766,1.000002,1.000001,1.000002,0
183313312.0,-1.94,0.5,-29.6,-29.69,144.42,143.26,0.0,0.0,-393.5,-185.5,-185.5,-1.964279,1.5575,0.316385,-1.425897,-0.1009459,-9.69697,0
344313886.0,0.445,0.45,3.775,3.675,145.8,145.38,0.0,0.0,-125.5,-176.5,-176.5,1.229106,2.842763,0.05520701,-4.822376,0.00854153,-8.912759,0
100113688.5,-0.075,-0.115,2.545,2.21,327.83,326.995,0.0,0.0,182.0,173.5,173.5,-0.839048,2.31577,0.07514051,-1.164522,-0.04699318,-10.1437,0
125863801.0,-2.16,0.92,-29.86,-28.09,330.38,329.41,0.09,0.09,-114.0,165.0,165.0,-1.424109,-2.323624,0.03800045,-5.388126,-0.06310069,-7.877159,1
418663301.0,0.5,1.75,4.0,4.76,205.68,205.64,0.0,0.0,-194.0,51.0,51.0,1.125592,-2.052974,0.04457024,0.03158512,-0.00587888,-9.793222,0
191763264.0,-4.61,-1.73,-29.28,-31.69,142.32,141.58,0.0,0.0,-389.0,-186.0,-186.0,-1.976748,1.522251,-0.317405,-1.663526,0.4008699,-9.70499,0
155963423.0,-0.32,3.59,-29.99,-29.81,333.6,332.91,0.0,0.0,-86.0,135.0,135.0,-0.298942,2.657392,0.04901831,-4.852413,-0.08341289,-8.713967,1
158063416.0,-0.37,-0.4,-29.99,-29.77,334.83,335.02,0.0,0.0,-87.0,132.0,132.0,1.785715,-1.863842,0.05550992,-4.907593,-0.01907034,-8.53953,1
139163479.0,-2.3,2.53,-29.91,-31.52,329.89,329.35,0.02,0.02,-158.0,148.0,148.0,0.8115556,2.444464,0.04094994,-4.717829,-0.3750401,-8.829479,1
258663993.0,21.68,20.55,-16.3,-21.76,86.59,90.9,0.49,0.49,-165.0,-370.0,-370.0,2.140095,-1.726415,-0.04199051,1.000002,1.000001,1.000002,2
160564082.0,-0.25,3.92,-29.99,-30.5,334.8,334.14,0.0,0.0,-87.0,128.0,128.0,-2.602637,0.551688,0.05700801,-4.817899,-0.1417916,-8.446718,1
395763298.0,-9.95,0.15,-0.93,-0.14,267.26,294.0,0.0,0.0,47.0,233.0,233.0,1.960117,-0.9654075,0.04859282,-0.5528877,-1.19337,-10.18426,3
165863628.0,-0.12,0.47,-29.99,-29.0,335.29,334.74,0.0,0.0,-100.0,130.0,130.0,-2.087098,1.522391,-0.01962155,-4.798322,-0.09317019,-8.566978,1
69613810.0,0.055,0.015,0.07,0.01,3.8,3.375,0.0,0.0,233.0,44.5,44.5,0.4903535,2.275889,0.123858,-0.2789121,-0.00447136,-9.808072,0
271963671.0,29.86,31.87,-0.24,1.6,89.63,85.18,0.44,0.44,77.0,-470.0,-470.0,-1.954759,1.166806,0.03923428,-0.2861611,-0.03019129,-9.250286,2
145813318.0,-1.015,1.29,-29.98,-30.445,329.545,329.025,0.0,0.0,-127.5,147.0,147.0,1.004125,-2.277503,0.6071803,-1.792356,0.439347,-11.98472,1
127563954.0,-1.99,-0.2,-29.93,-31.36,330.07,328.92,0.06,0.06,-126.0,157.0,157.0,2.470947,1.109386,0.04161814,-5.405499,-0.1816893,-8.512348,1
291063528.0,21.43,19.59,20.81,20.39,96.03,93.66,0.49,0.49,215.0,-401.0,-401.0,0.9538214,-2.011601,0.03272063,-1.319234,-0.00438942,-9.80864,2
127863834.0,-2.18,1.17,-29.92,-28.02,330.06,328.86,0.05,0.05,-128.0,163.0,163.0,-1.969375,-1.775124,0.04095967,-5.083132,-0.1217227,-8.216911,1
15563772.0,0.0,0.02,0.0,0.0,3.56,3.56,0.0,0.0,232.0,52.0,52.0,0.000195,0.00026858,0.00018583,-0.00188437,-0.00167402,-9.81715,0
320213530.0,1.185,0.775,3.26,3.055,151.48,150.68,0.04,0.04,-146.5,-162.5,-162.5,0.00320907,0.00319154,-0.01295351,0.02099436,-0.01620429,-9.817316,0
171863727.0,-0.05,-5.4,-26.69,-24.06,146.0,158.73,0.0,0.0,-405.0,-98.0,-98.0,-1.552697,2.152244,0.04298153,-4.864008,-0.137515,-8.644648,0
385113393.0,-9.85,0.18,1.71,-0.15,279.34,306.31,0.0,0.0,95.5,218.0,218.0,-2.214191,-1.576239,0.0464321,-1.676763,-4.08436,-8.768125,3
60563265.0,0.29,1.22,0.93,1.64,3.8,3.34,0.0,0.0,237.0,46.0,46.0,2.383776,0.2512492,0.04022464,8.723e-05,0.03182319,-9.858848,0
87063494.0,0.35,1.65,3.58,3.61,327.91,327.46,0.0,0.0,200.0,169.0,169.0,1.917397,-1.701064,0.195801,-0.4177824,0.03470405,-10.02126,0
352013305.0,-0.85,13.15,-1.11,8.585,252.165,222.725,0.045,0.045,91.5,-87.5,-87.5,-2.361511,-0.8885381,0.2575708,-0.5375217,-0.02626377,-10.39754,3
434463645.0,0.47,-0.7,1.18,0.43,200.96,200.11,0.0,0.0,-220.0,26.0,26.0,0.00119942,0.00118906,0.00126765,-0.0006889,-0.0014892,-9.817507,4
410163369.0,-0.21,0.4,-13.14,-14.76,193.49,192.75,0.0,0.0,-350.0,-3.0,-3.0,-0.665949,2.291798,0.04647302,0.00772005,0.03442941,-9.815097,0
335213361.0,0.56,0.315,2.995,2.94,151.46,150.8,0.0,0.0,-146.0,-160.0,-160.0,0.00298359,0.00294093,-0.01740146,0.00670162,0.01336026,-9.81748,0
87563294.0,0.63,-0.52,-3.01,-2.62,329.55,327.54,0.0,0.0,154.0,163.0,163.0,-0.9442661,2.260863,0.08124576,-1.056573,-0.05341389,-10.23775,0
428163666.0,0.2,-1.47,3.66,3.54,206.61,206.67,0.0,0.0,-200.0,58.0,58.0,0.00132188,0.0012345,0.00141713,-0.00129232,-0.00117555,-9.818737,4
144663778.0,-1.25,-0.75,-29.97,-30.69,329.61,329.0,0.0,0.0,-139.0,148.0,148.0,0.207995,2.648965,0.07401062,-4.829849,-0.3960496,-8.822775,1
126913381.0,-1.94,0.26,-29.94,-29.845,330.305,329.31,0.08,0.08,-121.5,161.0,161.0,2.605871,0.7759272,0.04096515,-5.49698,-0.1373898,-8.390853,1
69913690.0,0.135,-0.09,0.015,0.03,3.8,3.34,0.0,0.0,234.0,44.0,44.0,1.016357,-2.35933,0.02898409,-0.1864256,0.01470296,-9.856013,0
350863765.0,22.1,2.87,-1.44,31.77,219.26,197.96,0.01,0.01,275.0,-1.0,-1.0,-2.0567,1.089368,0.04630712,-0.4442499,-0.02530709,-9.839076,3
91663320.0,0.26,1.48,3.71,2.8,335.02,334.33,0.0,0.0,220.0,146.0,146.0,2.281278,-0.9753485,0.06834333,-0.8921291,0.0104471,-9.857702,0
231613984.0,0.225,1.075,-5.215,-4.315,92.645,90.235,0.01,0.01,22.5,-242.5,-242.5,-1.338506,2.721242,-0.3808075,1.000002,1.000001,1.000002,0
354113298.0,6.055,13.495,-10.325,-6.1,129.24,100.98,0.09,0.09,-18.5,-285.0,-285.0,2.34356,0.1525598,0.05649406,-0.6610087,0.0266254,-9.979325,3
313763611.0,0.33,2.04,3.02,3.14,145.78,145.25,0.22,0.22,-131.0,-176.0,-176.0,0.00330342,0.00331851,-0.00865452,-0.00914837,0.00568005,-9.817427,0
268063565.0,28.31,28.81,-4.65,-2.48,88.13,89.71,0.45,0.45,-19.0,-455.0,-455.0,1.1022,2.089052,0.0384035,-0.2734384,0.00383732,-9.872766,2
291563328.0,6.33,5.52,29.04,31.6,93.66,94.54,0.52,0.52,282.0,-288.0,-288.0,1.561656,-1.768987,0.06211765,-0.9716806,-0.03186929,-9.934714,2
254713907.0,0.845,0.65,-17.02,-16.14,89.245,88.85,0.25,0.25,-79.0,-197.5,-197.5,1.885587,1.27596,1.503807,1.000002,1.000001,1.000002,2
85063461.0,-0.39,1.02,1.83,2.64,327.89,327.35,0.0,0.0,180.0,174.0,174.0,2.32102,-0.357594,0.02065337,-0.8563348,0.03194845,-9.970022,0
58763985.0,0.23,0.7,0.31,1.97,3.8,3.32,0.0,0.0,236.0,46.0,46.0,2.234533,0.7984476,0.03663358,-0.006538,0.03120831,-9.793425,0
132713560.0,-3.24,-2.75,-29.835,-30.46,330.325,329.335,0.02,0.02,-164.0,186.0,186.0,-1.319668,-2.210665,0.06584409,-4.681438,-0.1103079,-8.356821,1
173513900.0,-1.04,0.25,-29.67,-29.355,147.33,148.025,0.0,0.0,-402.0,-174.0,-174.0,1.889337,-0.9087968,0.0649196,-5.012169,-0.1373024,-8.580849,0
137363366.0,-2.33,2.18,-29.91,-32.31,329.91,329.22,0.01,0.01,-167.0,149.0,149.0,-1.773169,-1.827538,0.01157325,-4.553259,-0.2051775,-8.469117,1
400164037.0,29.76,26.38,-0.16,4.45,168.08,160.32,0.0,0.0,-155.0,-370.0,-370.0,0.955985,-2.18861,0.0461282,-0.00629011,0.00182089,-9.796054,0
22813371.0,0.0,0.04,0.0,0.02,3.185,3.185,0.0,0.0,232.0,52.0,52.0,0.00026616,0.00031966,0.00036118,-0.00046016,-0.00057316,-9.816536,0
258763953.0,25.57,25.24,-11.13,-11.93,87.2,91.43,0.49,0.49,-111.0,-418.0,-418.0,2.071457,1.589423,-0.05524948,1.000002,1.000001,1.000002,2
349063652.0,0.54,1.3,3.81,2.18,145.81,145.28,0.0,0.0,-126.0,-180.0,-180.0,2.374188,0.5872939,0.02106558,-2.701745,-0.00255433,-9.528077,0
305263679.0,0.49,-0.09,0.62,-0.95,145.29,145.34,0.53,0.53,-160.0,-176.0,-176.0,0.08788386,-0.8837344,-0.04154426,1.080497,1.405516,-11.15108,0
133564053.0,-2.72,-2.21,-29.88,-32.7,330.19,329.27,0.02,0.02,-168.0,178.0,178.0,-1.633911,-2.032795,0.02098355,-4.670978,-0.1645886,-8.372295,1
303313626.0,-7.25,-6.53,1.575,2.0,145.77,147.55,0.37,0.37,-152.5,-101.0,-101.0,0.00485513,-0.07674144,-0.00532375,0.1983211,-2.044458,-8.130572,2
123763808.0,-1.44,0.31,-29.94,-31.06,330.46,328.94,0.17,0.17,-111.0,153.0,153.0,-2.676537,1.1269,0.06043999,-5.598278,-0.00830255,-7.916579,1
286413722.0,28.19,27.33,0.25,4.965,90.47,83.285,0.325,0.325,118.5,-448.5,-448.5,-0.1874137,2.914608,0.1326155,-1.345839,-0.0074177,-10.01372,2
290763648.0,27.4,27.9,11.35,14.38,94.82,92.29,0.53,0.53,145.0,-447.0,-447.0,0.2458079,-1.894345,0.02293171,-1.41426,0.01685179,-9.743861,2
194613790.0,-1.485,0.6,-29.585,-29.76,139.03,138.71,0.0,0.0,-379.5,-199.0,-199.0,-0.2102478,-2.873633,0.1173131,-0.347528,-0.01569818,-10.08708,0
206364088.0,-1.35,-0.62,-29.55,-31.02,127.38,126.97,0.0,0.0,-343.0,-226.0,-226.0,-2.885015,-2.108307,-0.1859649,1.000002,1.000001,1.000002,0
358313284.0,5.58,32.145,8.18,-3.845,26.36,174.635,0.23,0.23,212.5,-134.5,-134.5,1.783252,-1.61983,0.07581963,-0.3456594,-0.00570457,-9.834684,3
402563910.0,-8.9,-3.34,-27.53,-28.73,191.35,187.12,0.0,0.0,-450.0,8.88e-16,8.88e-16,-0.6070681,2.057156,0.04489004,-0.05032664,-0.03659284,-8.856815,0
262413326.0,-26.745,-26.19,-11.925,-11.925,76.975,77.735,0.33,0.33,-5.0,41.0,41.0,-2.447798,-0.2310158,0.03883895,-1.12919,0.00615207,-10.4877,2
361963490.0,1.38,-0.15,9.9,-0.16,351.45,324.54,0.09,0.09,159.0,177.0,177.0,1.907461,-1.286065,0.05334307,-0.6071337,0.01977499,-9.920462,3
311863538.0,0.4,0.15,-19.91,-18.27,145.42,145.66,0.24,0.24,-332.0,-173.0,-173.0,0.00336807,0.00336731,-0.00644922,0.01338564,0.01159165,-9.816626,0
222363519.0,9.46,11.91,-16.47,-10.77,59.29,43.12,0.0,0.0,99.0,-231.0,-231.0,-0.1541087,-2.667878,0.09656476,1.000002,1.000001,1.000002,0
282963436.0,-26.53,-24.13,-14.44,-17.02,93.32,92.01,0.57,0.57,-111.0,11.0,11.0,-1.149867,-2.043889,0.03240277,-1.099036,-0.0004975,-9.848672,2
194163970.0,-1.66,0.47,-29.6,-31.67,139.09,138.9,0.0,0.0,-381.0,-199.0,-199.0,1.634409,1.426589,-0.01872053,-0.2161022,0.01730347,-9.880913,0
324363536.0,0.6,1.95,3.81,3.71,151.48,150.99,0.02,0.02,-138.0,-160.0,-160.0,0.00315678,0.00311639,-0.01638548,-0.00771327,-0.01422912,-9.816763,0
325463929.0,0.5,-0.72,2.72,1.46,151.48,150.98,0.01,0.01,-153.0,-162.0,-162.0,0.00311388,0.00310018,-0.01715802,0.00958076,0.0180538,-9.817809,0
433213312.0,0.485,0.315,3.64,3.42,200.675,200.02,0.0,0.0,-202.0,27.0,27.0,0.00122046,0.00118351,0.00123097,-0.00087258,-0.00011249,-9.817616,4
92113973.0,0.13,-0.11,3.3,2.96,335.02,334.43,0.0,0.0,212.5,149.5,149.5,-2.245542,-0.4348359,0.02034558,-1.481967,-0.0145674,-9.587807,0
427813806.0,0.085,0.065,3.375,3.16,206.575,206.89,0.0,0.0,-200.5,57.5,57.5,0.00132495,0.00124992,0.00129611,-0.00170404,-0.00123102,-9.817153,4
197563443.0,-3.15,-1.3,-29.51,-31.57,136.17,136.09,0.0,0.0,-372.0,-196.0,-196.0,-1.412171,0.2307839,0.2302034,1.000002,1.000001,1.000002,0
247963275.0,29.85,28.8,-0.52,5.13,89.78,84.55,0.35,0.35,98.0,-458.0,-458.0,-1.83184,-1.92763,-0.01577687,1.000002,1.000001,1.000002,2
249813368.0,-29.945,-29.685,-0.055,0.525,89.515,91.585,0.46,0.46,43.5,57.5,57.5,2.103778,1.59283,-0.02383925,1.000002,1.000001,1.000002,2
187313378.0,-2.835,-1.055,-29.565,-29.885,143.04,143.255,0.0,0.0,-394.5,-174.5,-174.5,-0.9275375,2.263303,0.05696446,-0.02725067,0.00951909,-9.943489,0
339163447.0,0.74,-0.95,3.79,4.21,143.52,142.47,0.0,0.0,-121.0,-184.0,-184.0,-3.057028,0.4545169,0.5801975,-0.2167552,-0.358185,-10.72934,0
324963296.0,0.7,1.9,3.48,3.84,151.49,150.96,0.01,0.01,-142.0,-160.0,-160.0,0.00313401,0.0031274,-0.01702182,-0.02336511,-0.02020399,-9.818723,0
399263564.0,9.22,4.69,-3.8,8.39,196.96,191.67,0.01,0.01,-141.0,-3.0,-3.0,2.073931,-1.193586,0.05527598,-0.01058285,0.03666729,-9.827662,0
324163616.0,0.56,1.92,3.79,3.34,151.48,150.94,0.02,0.02,-141.0,-160.0,-160.0,0.0031378,0.00314993,-0.01540941,0.01942735,-0.00648866,-9.817259,0
347613399.0,-0.135,0.025,-4.165,-4.115,145.805,145.42,0.01,0.01,-211.0,-172.0,-172.0,0.09638254,2.180332,0.08096062,-3.346748,-0.04353423,-8.833477,0
431863852.0,-0.27,-0.87,0.65,1.97,200.73,201.12,0.0,0.0,-232.0,38.0,38.0,0.00122394,0.00125087,0.00129317,-0.00220905,-0.00121491,-9.817085,4
386463686.0,-9.91,0.18,1.32,-0.14,277.81,304.75,0.0,0.0,90.0,220.0,220.0,1.295101,2.29928,0.03949548,-1.758866,-4.26299,-8.886623,3
379213670.5,-3.125,0.19,9.5,-0.15,338.935,312.385,0.0,0.0,118.0,206.0,206.0,2.543384,0.945792,0.04466336,-0.9592434,-2.153457,-9.612302,3
203513562.0,-2.625,0.2,-29.67,-29.95,127.995,125.605,0.0,0.0,-337.0,-222.0,-222.0,-1.312247,0.7385578,-0.2014118,1.000002,1.000001,1.000002,0
378563514.0,-3.03,0.19,9.53,-0.15,339.55,312.99,0.0,0.0,120.0,205.0,205.0,-1.802404,1.600857,0.05686023,-0.6537114,-1.547261,-9.970279,3
99113672.0,-0.625,-0.395,-12.015,-12.265,327.77,327.96,0.0,0.0,37.0,173.5,173.5,-1.52781,1.241973,0.00376739,-0.195859,-0.03709207,-9.883346,0
20263558.0,0.0,0.03,0.0,0.01,3.49,3.49,0.0,0.0,232.0,52.0,52.0,0.00025147,0.00023597,0.00033418,0.0004196,-0.00155735,-9.818403,0
207213748.0,-15.265,-14.84,-25.24,-25.35,123.48,125.335,0.0,0.0,-306.0,-103.5,-103.5,2.90988,0.5119448,0.06998966,1.000002,1.000001,1.000002,0
196463883.0,-1.03,1.22,-29.74,-28.15,138.9,138.27,0.0,0.0,-378.0,-202.0,-202.0,2.688814,1.842696,0.05030928,0.9998084,0.9999301,0.999274,0
214914000.0,0.91,0.74,4.03,3.875,35.4,34.81,0.0,0.0,255.5,-94.5,-94.5,-2.588578,0.7022038,-0.2505405,1.000002,1.000001,1.000002,0
427913766.0,0.12,0.02,3.505,3.17,206.585,206.91,0.0,0.0,-199.5,58.0,58.0,0.00136325,0.00127015,0.00135307,-0.00175222,0.00011649,-9.817616,4
225063272.0,0.32,0.9,4.42,2.9,90.01,87.25,0.0,0.0,107.0,-229.0,-229.0,-1.240314,1.996107,-0.27447,1.000002,1.000001,1.000002,0
226763425.0,0.22,0.1,-7.25,-5.47,89.99,87.7,0.0,0.0,14.0,-232.0,-232.0,-0.9835641,1.604682,-0.3941583,1.000002,1.000001,1.000002,0
51763453.0,0.3,-0.17,0.36,1.94,1.42,0.6,0.0,0.0,232.0,57.0,57.0,-1.722695,-1.959159,0.05417543,0.05861427,-0.01512772,-9.875738,0
364963956.0,1.0,0.0,9.95,-0.08,350.23,323.34,0.04,0.04,156.0,180.0,180.0,0.04312767,2.811426,0.09259758,-1.3796,0.02254798,-9.717935,3
150314017.0,-0.955,1.455,-29.98,-30.17,331.96,331.745,0.0,0.0,-102.0,140.5,140.5,-0.8048173,-2.5008,0.02577661,-4.232096,0.1343476,-8.702573,1
422113587.0,-0.1,0.01,2.085,2.17,194.45,195.135,0.0,0.0,-219.5,12.0,12.0,0.8641065,-2.208732,0.04298742,0.01554758,-0.01780516,-9.822846,4
201263629.0,-1.28,1.86,-29.68,-28.26,134.99,134.6,0.0,0.0,-364.0,-209.0,-209.0,1.354676,-1.992262,0.0480426,1.000002,1.000001,1.000002,0
227913798.0,-0.73,0.39,-22.445,-21.615,90.145,90.235,0.0,0.0,-142.5,-233.0,-233.0,2.035011,-2.065979,0.1493853,1.000002,1.000001,1.000002,0
390913572.0,-9.99,0.175,0.17,-0.15,272.755,299.6,0.0,0.0,69.5,228.0,228.0,2.443565,-1.102559,0.05658858,-1.849236,-4.142839,-8.597891,3
266563332.0,-29.5,-28.25,-4.36,-8.78,90.23,85.56,0.41,0.41,5.0,50.0,50.0,-1.968095,-1.217476,0.04897964,-1.140303,-0.02172049,-9.837566,2
22113651.0,0.0,0.04,0.0,0.02,3.27,3.27,0.0,0.0,232.0,52.0,52.0,0.00032226,0.00027185,0.0003131,-0.00151389,-0.00121411,-9.816606,0
49013720.0,0.02,0.1,0.02,0.09,1.42,1.4,0.0,0.0,232.0,52.0,52.0,-2.650627,-0.1013349,0.04436835,0.01693658,0.0148477,-10.37905,0
309713565.0,0.565,0.7,4.34,4.285,143.47,143.005,0.41,0.41,-114.0,-183.5,-183.5,0.00335312,0.00338888,-0.00441977,-0.0251699,-0.0112121,-9.817692,0
238663663.0,18.46,20.62,-24.02,-23.75,86.03,82.02,0.75,0.75,-131.0,-393.0,-393.0,-2.278944,2.968772,0.06508218,1.000002,1.000001,1.000002,0
288713635.0,-28.45,-28.49,3.74,3.925,90.415,90.065,0.27,0.27,101.0,29.0,29.0,1.656218,1.678827,0.03788242,-0.2777105,0.00505684,-9.796851,2
145763338.0,-1.02,3.22,-29.98,-30.26,329.55,329.04,0.0,0.0,-124.0,146.0,146.0,2.944231,0.5569047,0.6175076,-2.112272,0.4223612,-12.18952,1
140413812.0,-2.11,0.67,-29.93,-31.015,329.835,328.94,0.02,0.02,-159.5,151.0,151.0,2.676929,0.1731011,0.06601042,-4.801702,-0.352341,-8.799963,1
385163373.0,-9.85,0.18,1.7,-0.15,279.28,306.25,0.0,0.0,95.0,218.0,218.0,-2.219563,1.430643,0.05884382,-1.663123,-4.257515,-8.891184,3
26563537.0,0.0,0.05,0.0,0.03,2.75,2.75,0.0,0.0,232.0,52.0,52.0,0.00044647,0.0004011,0.00040044,-0.00190501,-0.00044774,-9.817751,0
184963485.0,-1.62,1.66,-29.49,-31.4,144.27,143.55,0.0,0.0,-394.0,-191.0,-191.0,-1.813661,1.40839,0.08726367,-0.4345076,-0.04694768,-9.8412,0
253963374.0,-29.99,-30.27,0.07,-0.47,89.45,92.54,0.38,0.38,49.0,48.0,48.0,-0.2723272,-2.623219,-1.090162,1.000002,1.000001,1.000002,2
310513661.5,0.56,0.51,2.92,2.755,143.46,143.025,0.22,0.22,-127.5,-182.0,-182.0,0.00334105,0.0033274,-0.00507921,0.00645671,-0.02002195,-9.817524,0
386113826.0,-9.9,0.18,1.38,-0.15,278.205,305.15,0.0,0.0,91.0,220.0,220.0,-0.2987228,-2.615385,0.05258317,-1.699438,-4.00163,-8.619965,3
361113830.0,1.39,-0.16,9.9,-0.275,351.745,324.845,0.13,0.13,160.0,176.0,176.0,0.889788,-2.101117,0.04401384,-1.192979,-0.04786694,-9.751116,3
297563427.0,29.82,25.74,-2.64,-13.29,202.78,227.61,0.66,0.66,-333.0,-63.0,-63.0,3.233361,-7.679113,-6.14061,0.1402677,-0.5611882,-6.050647,2
